City_ID,City,Country,Date,Lat,Lng,Max Temp,Humidity,Cloudiness,Wind Speed,Current Description,Rain inches,Snow inches
0,Busselton,AU,2020-05-10 20:08:31,-33.65,115.33,48.0,72,85,2.13,overcast clouds,0,0
1,Saint-Augustin,CA,2020-05-10 20:09:33,51.23,-58.65,34.18,91,100,12.17,overcast clouds,0,0
2,Manado,ID,2020-05-10 20:08:38,1.49,124.85,77.0,94,40,2.24,scattered clouds,0,0
3,Longkou,CN,2020-05-10 20:09:33,37.65,120.33,58.26,58,22,5.5,few clouds,0,0
4,Hasaki,JP,2020-05-10 20:09:33,35.73,140.83,69.8,94,75,3.36,broken clouds,0,0
5,Atuona,PF,2020-05-10 20:05:14,-9.8,-139.03,81.18,79,12,16.71,light rain,0,0
6,Georgetown,MY,2020-05-10 20:07:11,5.41,100.34,78.8,94,40,4.7,scattered clouds,0,0
7,San Carlos De Bariloche,AR,2020-05-10 20:09:33,-41.15,-71.31,44.6,75,40,21.92,scattered clouds,0,0
8,Floro,NO,2020-05-10 20:09:33,61.6,5.03,33.8,71,75,9.17,shower rain,0,0
9,Asosa,ET,2020-05-10 20:09:34,10.07,34.53,70.29,67,2,1.3,clear sky,0,0
10,Iqaluit,CA,2020-05-10 20:08:36,63.75,-68.51,28.4,63,75,17.22,broken clouds,0,0
11,Puerto Ayora,EC,2020-05-10 20:08:30,-0.74,-90.35,86.0,66,20,14.99,few clouds,0,0
12,Ostrovnoy,RU,2020-05-10 20:06:08,68.05,39.51,31.55,94,100,10.29,overcast clouds,0,0
13,Magadan,RU,2020-05-10 20:09:34,59.57,150.8,35.85,82,96,5.37,overcast clouds,0,0
14,Victoria,HK,2020-05-10 20:07:31,22.29,114.16,81.0,78,73,4.0,broken clouds,0,0
15,Beloha,MG,2020-05-10 20:09:34,-25.17,45.05,65.39,80,0,13.27,clear sky,0,0
16,Hobart,AU,2020-05-10 20:06:09,-42.88,147.33,50.0,71,51,12.75,broken clouds,0,0
17,Saskylakh,RU,2020-05-10 20:09:34,71.92,114.08,13.17,95,41,7.0,scattered clouds,0,0
18,Padang,ID,2020-05-10 20:06:10,-0.95,100.35,78.53,79,100,3.04,overcast clouds,0,0
19,Novobiryusinskiy,RU,2020-05-10 20:09:35,56.96,97.71,47.73,55,100,4.29,overcast clouds,0,0
20,New Norfolk,AU,2020-05-10 20:07:31,-42.78,147.06,46.99,86,93,1.01,overcast clouds,0,0
21,Jamestown,US,2020-05-10 20:09:35,42.1,-79.24,54.0,65,75,16.11,broken clouds,0,0
22,Butaritari,KI,2020-05-10 20:08:34,3.07,172.79,83.16,77,17,8.52,few clouds,0,0
23,Rapsani,GR,2020-05-10 20:09:35,39.9,22.55,62.6,77,40,5.82,scattered clouds,0,0
24,Bluff,NZ,2020-05-10 20:09:35,-46.6,168.33,51.26,77,100,10.38,overcast clouds,0,0
25,Olafsvik,IS,2020-05-10 20:09:35,64.89,-23.71,41.86,74,18,14.79,few clouds,0,0
26,Eydhafushi,MV,2020-05-10 20:09:35,5.1,73.07,85.01,77,99,9.91,moderate rain,0,0
27,Leningradskiy,RU,2020-05-10 20:09:36,69.38,178.42,35.58,92,100,17.38,overcast clouds,0,0
28,Nelidovo,RU,2020-05-10 20:09:36,56.22,32.78,44.2,63,0,3.47,clear sky,0,0
29,Hermanus,ZA,2020-05-10 20:08:32,-34.42,19.23,59.0,80,0,3.13,clear sky,0,0
30,Qaanaaq,GL,2020-05-10 20:04:51,77.48,-69.36,13.12,83,0,1.68,clear sky,0,0
31,Nikolskoye,RU,2020-05-10 20:04:46,59.7,30.79,46.99,45,17,6.71,few clouds,0,0
32,Lagoa,PT,2020-05-10 20:06:56,39.05,-27.98,58.15,73,83,28.77,broken clouds,0,0
33,Vaini,TO,2020-05-10 20:04:48,-21.2,-175.2,73.4,88,40,6.93,scattered clouds,0,0
34,Kapaa,US,2020-05-10 20:09:36,22.08,-159.32,75.99,69,90,12.75,overcast clouds,0,0
35,Touros,BR,2020-05-10 20:09:36,-5.2,-35.46,84.2,74,40,10.29,scattered clouds,0,0
36,Hithadhoo,MV,2020-05-10 20:09:36,-0.6,73.08,84.94,77,96,12.48,moderate rain,0,0
37,Mayo,US,2020-05-10 20:09:37,38.89,-76.51,64.99,38,1,10.29,light rain,0,0
38,Mahebourg,MU,2020-05-10 20:08:31,-20.41,57.7,73.4,64,40,10.29,scattered clouds,0,0
39,Cape Coast,GH,2020-05-10 20:09:37,5.11,-1.25,79.97,87,100,5.79,moderate rain,0,0
40,Nelson Bay,AU,2020-05-10 20:04:47,-32.72,152.15,46.99,75,40,8.05,scattered clouds,0,0
41,Castro,BR,2020-05-10 20:09:37,-24.79,-50.01,66.2,69,0,4.59,clear sky,0,0
42,Tuktoyaktuk,CA,2020-05-10 20:05:21,69.45,-133.04,35.6,80,75,11.41,broken clouds,0,0
43,Araouane,ML,2020-05-10 20:09:37,18.9,-3.53,92.16,10,0,3.94,clear sky,0,0
44,Guasdualito,VE,2020-05-10 20:09:37,7.24,-70.73,96.8,41,40,4.7,scattered clouds,0,0
45,Salmon Arm,CA,2020-05-10 20:09:38,50.7,-119.3,61.0,44,0,2.93,clear sky,0,0
46,Cape Town,ZA,2020-05-10 20:06:45,-33.93,18.42,57.99,100,75,4.7,fog,0,0
47,Rikitea,PF,2020-05-10 20:09:38,-23.12,-134.97,75.9,73,3,10.25,clear sky,0,0
48,Carnarvon,AU,2020-05-10 20:09:38,-24.87,113.63,71.73,59,11,8.25,few clouds,0,0
49,Fort-Shevchenko,KZ,2020-05-10 20:09:38,44.51,50.26,54.81,85,100,14.83,light rain,0,0
50,Chuy,UY,2020-05-10 20:09:38,-33.7,-53.46,70.36,63,0,7.58,clear sky,0,0
51,San Patricio,MX,2020-05-10 20:09:38,19.22,-104.7,82.4,78,5,11.41,clear sky,0,0
52,Ushuaia,AR,2020-05-10 20:05:26,-54.8,-68.3,44.6,81,84,3.15,broken clouds,0,0
53,Kodiak,US,2020-05-10 20:05:30,57.79,-152.41,44.6,93,90,9.17,fog,0,0
54,Kamaishi,JP,2020-05-10 20:09:39,39.27,141.88,57.49,78,10,11.45,clear sky,0,0
55,Harper,LR,2020-05-10 20:05:48,4.38,-7.72,81.61,82,98,11.01,overcast clouds,0,0
56,Albany,US,2020-05-10 20:05:01,42.6,-73.97,57.0,30,95,4.0,overcast clouds,0,0
57,Grindavik,IS,2020-05-10 20:08:39,63.84,-22.43,44.6,66,75,14.99,broken clouds,0,0
58,Muscat,OM,2020-05-10 20:09:39,23.61,58.59,86.0,51,0,3.11,clear sky,0,0
59,Portland,US,2020-05-10 20:06:21,45.52,-122.68,84.0,31,1,5.86,clear sky,0,0
60,Mataura,NZ,2020-05-10 20:08:35,-46.19,168.86,44.6,85,67,3.31,broken clouds,0,0
61,Punta Arenas,CL,2020-05-10 20:09:40,-53.15,-70.92,46.0,93,75,11.41,broken clouds,0,0
62,Faanui,PF,2020-05-10 20:05:27,-16.48,-151.75,81.36,82,100,13.98,light rain,0,0
63,Labuhan,ID,2020-05-10 20:06:24,-6.88,112.21,79.0,88,74,8.34,light rain,0,0
64,Alice Springs,AU,2020-05-10 20:05:22,-23.7,133.88,48.2,49,86,5.82,overcast clouds,0,0
65,Geraldton,AU,2020-05-10 20:05:40,-28.77,114.6,53.6,76,0,7.74,clear sky,0,0
66,Bonoua,CI,2020-05-10 20:09:40,5.27,-3.6,84.2,83,20,12.75,few clouds,0,0
67,Florida,US,2020-05-10 20:09:40,28.75,-82.5,82.4,57,75,8.05,broken clouds,0,0
68,Dikson,RU,2020-05-10 20:09:40,73.51,80.55,22.1,98,0,11.01,clear sky,0,0
69,Cordeiro,BR,2020-05-10 20:09:40,-22.03,-42.36,61.81,82,50,2.01,scattered clouds,0,0
70,College,US,2020-05-10 20:06:16,64.86,-147.8,73.99,24,75,4.7,broken clouds,0,0
71,Thompson,CA,2020-05-10 20:08:40,55.74,-97.86,28.4,42,5,13.87,clear sky,0,0
72,Kavieng,PG,2020-05-10 20:08:29,-2.57,150.8,83.35,80,25,10.58,scattered clouds,0,0
73,Parana,AR,2020-05-10 20:09:41,-31.73,-60.52,84.99,43,0,7.0,clear sky,0,0
74,Inhambane,MZ,2020-05-10 20:09:41,-23.86,35.38,69.44,78,27,8.28,scattered clouds,0,0
75,Batagay-Alyta,RU,2020-05-10 20:09:41,67.8,130.41,20.32,94,100,5.99,overcast clouds,0,0
76,Yulara,AU,2020-05-10 20:09:41,-25.24,130.99,55.4,43,82,13.87,broken clouds,0,0
77,Riyadh,SA,2020-05-10 20:06:54,24.69,46.72,91.4,24,90,9.17,overcast clouds,0,0
78,East London,ZA,2020-05-10 20:09:41,-33.02,27.91,73.15,36,0,7.25,clear sky,0,0
79,La Ronge,CA,2020-05-10 20:09:41,55.1,-105.28,37.4,40,75,5.82,broken clouds,0,0
80,Barcelos,PT,2020-05-10 20:09:41,41.54,-8.62,60.8,82,40,9.17,scattered clouds,0,0
81,Port Alfred,ZA,2020-05-10 20:09:42,-33.59,26.89,70.0,49,0,7.99,clear sky,0,0
82,Umm Kaddadah,SD,2020-05-10 20:09:42,13.6,26.69,83.88,13,1,14.25,clear sky,0,0
83,Point Fortin,TT,2020-05-10 20:09:42,10.18,-61.68,89.01,52,42,13.44,scattered clouds,0,0
84,Marystown,CA,2020-05-10 20:06:46,47.17,-55.15,33.87,91,100,30.38,overcast clouds,0,0
85,Joao Pessoa,BR,2020-05-10 20:09:42,-7.12,-34.86,84.2,70,20,10.29,few clouds,0,0
86,Lianran,CN,2020-05-10 20:09:42,24.92,102.48,64.0,48,0,6.71,clear sky,0,0
87,Farmington,US,2020-05-10 20:09:42,36.73,-108.22,78.8,11,1,6.93,clear sky,0,0
88,Cidreira,BR,2020-05-10 20:09:42,-30.18,-50.21,67.87,68,99,10.02,overcast clouds,0,0
89,Naron,ES,2020-05-10 20:09:43,43.52,-8.15,60.01,82,40,2.24,scattered clouds,0,0
90,Cap Malheureux,MU,2020-05-10 20:09:43,-19.98,57.61,69.01,73,46,1.99,scattered clouds,0,0
91,Guarapari,BR,2020-05-10 20:09:43,-20.67,-40.5,75.99,58,0,4.81,clear sky,0,0
92,Barrow,US,2020-05-10 20:08:39,71.29,-156.79,26.6,86,1,6.93,clear sky,0,0
93,Erdenet,MN,2020-05-10 20:09:43,49.03,104.08,44.1,57,60,4.47,broken clouds,0,0
94,Vila Do Maio,CV,2020-05-10 20:09:43,15.13,-23.22,77.0,65,20,21.92,few clouds,0,0
95,Asau,RO,2020-05-10 20:09:43,46.43,26.4,52.0,83,100,4.14,overcast clouds,0,0
96,Bethel,US,2020-05-10 20:05:08,41.37,-73.41,62.01,28,1,9.17,clear sky,0,0
97,Port Macquarie,AU,2020-05-10 20:09:43,-31.43,152.92,46.99,81,3,11.03,clear sky,0,0
98,Moron,AR,2020-05-10 20:09:44,-34.65,-58.62,77.0,44,0,5.82,clear sky,0,0
99,Lebu,CL,2020-05-10 20:09:44,-37.62,-73.65,57.36,76,44,7.05,light rain,0,0
100,Yellowknife,CA,2020-05-10 20:09:44,62.46,-114.35,37.4,47,75,8.05,broken clouds,0,0
101,Newport,GB,2020-05-10 20:09:44,51.59,-3.0,48.0,70,59,1.99,broken clouds,0,0
102,Abancay,PE,2020-05-10 20:09:44,-13.63,-72.88,70.0,52,54,7.7,moderate rain,0,0
103,Jawa,JO,2020-05-10 20:09:44,31.85,35.94,60.8,67,0,4.7,clear sky,0,0
104,Saldanha,ZA,2020-05-10 20:09:44,-33.01,17.94,59.0,72,0,4.7,clear sky,0,0
105,Hilo,US,2020-05-10 20:08:32,19.73,-155.09,78.8,57,1,4.7,clear sky,0,0
106,Mar Del Plata,AR,2020-05-10 20:04:53,-38.0,-57.56,70.0,46,89,9.17,overcast clouds,0,0
107,Hovd,MN,2020-05-10 20:05:43,48.01,91.64,47.1,41,0,0.43,clear sky,0,0
108,Coquimbo,CL,2020-05-10 20:05:24,-29.95,-71.34,59.0,77,20,11.41,few clouds,0,0
109,Asyut,EG,2020-05-10 20:08:14,27.18,31.18,78.8,36,0,11.41,clear sky,0,0
110,Brae,GB,2020-05-10 20:04:53,60.4,-1.35,39.2,60,100,23.04,overcast clouds,0,0
111,Am Timan,TD,2020-05-10 20:09:45,11.03,20.28,92.37,28,59,4.63,broken clouds,0,0
112,Husavik,IS,2020-05-10 20:09:45,66.04,-17.34,50.0,34,10,33.33,clear sky,0,0
113,Tiksi,RU,2020-05-10 20:09:45,71.69,128.87,26.04,98,99,4.81,overcast clouds,0,0
114,Ribeira Grande,PT,2020-05-10 20:09:45,38.52,-28.7,60.8,67,20,24.16,few clouds,0,0
115,Ostersund,SE,2020-05-10 20:09:46,63.18,14.64,32.0,87,0,13.87,clear sky,0,0
116,Ilulissat,GL,2020-05-10 20:05:37,69.22,-51.1,32.0,91,100,10.29,overcast clouds,0,0
117,Lovozero,RU,2020-05-10 20:09:46,68.0,35.01,31.95,96,100,18.12,overcast clouds,0,0
118,Fortuna,US,2020-05-10 20:09:46,40.6,-124.16,63.0,87,1,13.87,clear sky,0,0
119,Luderitz,NA,2020-05-10 20:09:46,-26.65,15.16,73.4,43,0,1.12,clear sky,0,0
120,Aracatuba,BR,2020-05-10 20:09:46,-21.21,-50.43,76.42,59,0,5.26,clear sky,0,0
121,Iskateley,RU,2020-05-10 20:09:46,67.68,53.15,33.6,94,100,6.73,overcast clouds,0,0
122,Pochutla,MX,2020-05-10 20:09:46,15.74,-96.47,93.0,49,40,11.41,scattered clouds,0,0
123,Gorontalo,ID,2020-05-10 20:09:47,0.54,123.06,77.83,85,97,4.43,overcast clouds,0,0
124,Maceio,BR,2020-05-10 20:06:55,-9.67,-35.74,77.0,88,75,2.24,broken clouds,0,0
125,Saint-Philippe,RE,2020-05-10 20:04:59,-21.36,55.77,69.8,56,40,10.29,scattered clouds,0,0
126,Teya,RU,2020-05-10 20:09:47,60.38,92.63,49.93,55,75,4.34,broken clouds,0,0
127,Myaundzha,RU,2020-05-10 20:09:47,63.05,147.19,27.18,96,100,4.0,overcast clouds,0,0
128,Kinsale,IE,2020-05-10 20:09:47,51.71,-8.53,50.0,66,75,21.92,broken clouds,0,0
129,Port Elizabeth,ZA,2020-05-10 20:08:46,-33.92,25.57,59.0,62,0,6.93,clear sky,0,0
130,Perigueux,FR,2020-05-10 20:09:47,45.18,0.72,59.0,91,100,6.62,overcast clouds,0,0
131,Rio Gallegos,AR,2020-05-10 20:09:47,-51.62,-69.22,44.6,87,42,8.05,scattered clouds,0,0
132,Chokurdakh,RU,2020-05-10 20:09:47,70.63,147.92,29.01,98,99,15.68,overcast clouds,0,0
133,Gao,ML,2020-05-10 20:09:48,16.64,1.64,92.84,9,2,7.14,clear sky,0,0
134,Vestmannaeyjar,IS,2020-05-10 20:09:48,63.44,-20.27,43.54,70,18,13.58,few clouds,0,0
135,Ponta Do Sol,PT,2020-05-10 20:05:33,32.67,-17.1,68.0,72,20,2.24,few clouds,0,0
136,Abalak,RU,2020-05-10 20:09:48,58.13,68.59,61.32,60,99,5.53,overcast clouds,0,0
137,Poronaysk,RU,2020-05-10 20:09:48,49.22,143.12,38.3,93,100,5.06,light rain,0,0
138,Shingu,JP,2020-05-10 20:09:48,33.73,135.98,64.02,92,100,4.92,overcast clouds,0,0
139,Khatanga,RU,2020-05-10 20:09:48,71.97,102.5,20.44,96,86,6.69,overcast clouds,0,0
140,Doka,SD,2020-05-10 20:09:48,13.52,35.77,89.11,17,52,7.36,broken clouds,0,0
141,Lompoc,US,2020-05-10 20:05:07,34.64,-120.46,62.01,93,90,5.82,overcast clouds,0,0
142,Santa Clara,CU,2020-05-10 20:09:48,22.4,-79.97,77.0,100,75,3.36,moderate rain,0,0
143,Gerash,IR,2020-05-10 20:09:49,27.67,54.14,82.4,37,98,4.7,overcast clouds,0,0
144,Dali,CN,2020-05-10 20:09:49,25.7,100.18,57.87,63,0,5.01,clear sky,0,0
145,Naze,JP,2020-05-10 20:09:49,28.37,129.48,71.6,100,75,6.93,broken clouds,0,0
146,Bathsheba,BB,2020-05-10 20:09:49,13.22,-59.52,86.0,58,40,18.34,scattered clouds,0,0
147,Namatanai,PG,2020-05-10 20:09:49,-3.67,152.43,80.65,79,97,6.89,overcast clouds,0,0
148,Norman Wells,CA,2020-05-10 20:09:49,65.28,-126.83,48.2,61,20,11.41,few clouds,0,0
149,Seymour,US,2020-05-10 20:09:22,38.96,-85.89,60.01,76,75,10.29,broken clouds,0,0
150,Calvia,ES,2020-05-10 20:09:49,39.57,2.51,66.2,82,0,13.87,light rain,0,0
151,Longyearbyen,SJ,2020-05-10 20:09:50,78.22,15.64,17.6,67,75,6.93,broken clouds,0,0
152,Cabo San Lucas,MX,2020-05-10 20:09:50,22.89,-109.91,87.8,30,20,9.17,few clouds,0,0
153,Poum,NC,2020-05-10 20:09:50,-20.23,164.02,74.19,74,5,7.56,clear sky,0,0
154,Walvis Bay,NA,2020-05-10 20:09:50,-22.96,14.51,75.88,34,0,11.79,clear sky,0,0
155,Semporna,MY,2020-05-10 20:09:50,4.48,118.61,78.8,94,20,3.36,few clouds,0,0
156,Saint George,US,2020-05-10 20:05:12,37.1,-113.58,91.99,16,1,3.36,clear sky,0,0
157,Methoni,GR,2020-05-10 20:09:50,36.82,21.7,64.0,82,20,0.16,few clouds,0,0
158,Saint-Pierre,RE,2020-05-10 20:09:50,-21.34,55.48,69.8,56,40,10.29,scattered clouds,0,0
159,Abu Samrah,SY,2020-05-10 20:09:50,35.3,37.18,62.17,56,0,8.52,clear sky,0,0
160,Taoudenni,ML,2020-05-10 20:09:51,22.68,-3.98,96.85,9,2,6.53,clear sky,0,0
161,Ixtapa,MX,2020-05-10 20:09:51,20.7,-105.2,84.2,51,20,9.17,few clouds,0,0
162,Zhanaozen,KZ,2020-05-10 20:09:51,43.3,52.8,57.96,89,68,16.91,light rain,0,0
163,Mlowo,TZ,2020-05-10 20:09:51,-9.0,32.98,55.4,96,100,4.36,overcast clouds,0,0
164,Navalmoral De La Mata,ES,2020-05-10 20:09:51,39.89,-5.54,54.0,77,67,6.91,broken clouds,0,0
165,Bredasdorp,ZA,2020-05-10 20:09:51,-34.53,20.04,60.8,87,0,4.7,clear sky,0,0
166,Olot,ES,2020-05-10 20:09:51,42.18,2.49,54.0,94,24,4.0,light rain,0,0
167,Lisakovsk,KZ,2020-05-10 20:09:51,52.54,62.49,65.48,63,54,8.23,broken clouds,0,0
168,Adrar,MR,2020-05-10 20:08:51,20.5,-10.07,91.17,12,66,9.04,broken clouds,0,0
169,Kuching,MY,2020-05-10 20:09:52,1.55,110.33,78.8,94,20,1.74,few clouds,0,0
170,Constantine,DZ,2020-05-10 20:09:52,36.37,6.61,60.8,67,75,11.41,broken clouds,0,0
171,Isangel,VU,2020-05-10 20:09:52,-19.55,169.27,70.97,70,24,6.15,few clouds,0,0
172,Alofi,NU,2020-05-10 20:09:52,-19.06,-169.92,80.6,88,0,3.36,clear sky,0,0
173,Gubkinskiy,RU,2020-05-10 20:09:52,64.43,76.5,52.27,78,94,1.54,overcast clouds,0,0
174,Yeppoon,AU,2020-05-10 20:09:52,-23.13,150.73,64.4,39,90,10.29,overcast clouds,0,0
175,Auki,SB,2020-05-10 20:09:52,-8.77,160.7,79.52,84,16,5.77,light rain,0,0
176,Waterloo,CA,2020-05-10 20:09:39,43.47,-80.52,52.0,50,90,13.87,overcast clouds,0,0
177,Vao,NC,2020-05-10 20:06:04,-22.67,167.48,71.73,62,100,5.84,overcast clouds,0,0
178,Sampit,ID,2020-05-10 20:09:53,-2.53,112.95,75.76,96,64,2.13,broken clouds,0,0
179,Arraial Do Cabo,BR,2020-05-10 20:09:53,-22.97,-42.03,75.2,60,0,23.04,clear sky,0,0
180,Klaksvik,FO,2020-05-10 20:09:53,62.23,-6.59,35.6,55,95,13.87,overcast clouds,0,0
181,Havelock,US,2020-05-10 20:05:56,34.88,-76.9,69.8,22,1,11.07,clear sky,0,0
182,Nishihara,JP,2020-05-10 20:09:53,26.18,127.76,77.0,94,75,9.17,moderate rain,0,0
183,Qaqortoq,GL,2020-05-10 20:09:53,60.72,-46.03,57.2,74,84,8.05,broken clouds,0,0
184,Shizunai,JP,2020-05-10 20:07:41,42.33,142.37,50.0,91,89,16.49,overcast clouds,0,0
185,Te Anau,NZ,2020-05-10 20:09:53,-45.42,167.72,48.76,81,100,3.0,overcast clouds,0,0
186,San Cristobal,VE,2020-05-10 20:09:54,7.77,-72.22,100.4,25,20,20.8,few clouds,0,0
187,Montepuez,MZ,2020-05-10 20:09:54,-13.13,39.0,69.12,83,61,6.2,broken clouds,0,0
188,Grand Gaube,MU,2020-05-10 20:09:54,-20.01,57.66,69.01,73,47,1.99,scattered clouds,0,0
189,Plattling,DE,2020-05-10 20:09:54,48.78,12.87,61.0,100,2,5.82,clear sky,0,0
190,General Roca,AR,2020-05-10 20:09:54,-39.03,-67.58,68.0,29,5,24.16,dust,0,0
191,Krasnovishersk,RU,2020-05-10 20:09:54,60.41,57.08,55.58,86,98,3.31,light rain,0,0
192,Sterling,US,2020-05-10 20:05:42,39.01,-77.43,66.0,27,1,13.87,clear sky,0,0
193,Pevek,RU,2020-05-10 20:09:54,69.7,170.31,36.64,81,0,16.15,clear sky,0,0
194,Provideniya,RU,2020-05-10 20:05:13,64.38,-173.3,34.86,95,100,8.37,light rain,0,0
195,Nuuk,GL,2020-05-10 20:09:44,64.18,-51.72,42.8,75,100,17.22,overcast clouds,0,0
196,San Andres,CO,2020-05-10 20:09:55,12.58,-81.7,89.6,70,20,11.41,few clouds,0,0
197,Lasa,IT,2020-05-10 20:09:55,46.62,10.7,53.6,71,75,8.05,broken clouds,0,0
198,Mount Gambier,AU,2020-05-10 20:09:55,-37.83,140.77,46.4,93,40,10.29,scattered clouds,0,0
199,Tuatapere,NZ,2020-05-10 20:09:55,-46.13,167.68,51.19,79,100,6.42,overcast clouds,0,0
200,Paamiut,GL,2020-05-10 20:05:29,61.99,-49.67,42.22,79,94,24.27,overcast clouds,0,0
201,Nouadhibou,MR,2020-05-10 20:09:55,20.93,-17.03,68.38,73,95,25.41,overcast clouds,0,0
202,Tasiilaq,GL,2020-05-10 20:09:55,65.61,-37.64,33.8,80,0,8.05,clear sky,0,0
203,Aichach,DE,2020-05-10 20:09:55,48.46,11.13,64.0,77,38,5.82,scattered clouds,0,0
204,Banjar,ID,2020-05-10 20:09:56,-8.19,114.97,78.8,100,20,6.93,few clouds,0,0
205,Lebyazhye,RU,2020-05-10 20:09:56,55.27,66.49,59.41,94,19,7.7,few clouds,0,0
206,Aklavik,CA,2020-05-10 20:09:56,68.22,-135.01,46.4,99,75,10.29,broken clouds,0,0
207,Kosa,RU,2020-05-10 20:09:56,59.94,55.0,53.19,95,71,6.06,broken clouds,0,0
208,Marawi,PH,2020-05-10 20:09:56,8.0,124.29,79.0,90,5,3.0,clear sky,0,0
209,Port Hedland,AU,2020-05-10 20:09:56,-20.32,118.57,75.2,25,100,5.82,overcast clouds,0,0
210,Zaton,RU,2020-05-10 20:09:56,53.29,83.81,66.2,25,0,8.95,clear sky,0,0
211,Colomi,BO,2020-05-10 20:09:56,-17.35,-65.87,86.0,17,20,3.36,few clouds,0,0
212,Colombo,LK,2020-05-10 20:09:56,6.93,79.85,79.74,84,100,6.98,overcast clouds,0,0
213,Flinders,AU,2020-05-10 20:09:57,-34.58,150.86,46.0,73,0,1.01,clear sky,0,0
214,Cedar City,US,2020-05-10 20:09:57,37.68,-113.06,82.4,13,1,13.87,clear sky,0,0
215,Narsaq,GL,2020-05-10 20:09:57,60.92,-46.05,57.2,62,95,8.05,overcast clouds,0,0
216,Dauphin,CA,2020-05-10 20:09:57,51.15,-100.05,42.8,38,20,18.34,few clouds,0,0
217,Melito Di Porto Salvo,IT,2020-05-10 20:09:57,37.92,15.77,66.0,93,13,21.92,few clouds,0,0
218,Tete,MZ,2020-05-10 20:09:57,-16.16,33.59,73.4,60,40,3.36,scattered clouds,0,0
219,Trinidad,BO,2020-05-10 20:09:57,-14.83,-64.9,87.8,52,20,11.41,few clouds,0,0
220,Villa Rica,US,2020-05-10 20:09:27,33.73,-84.92,71.01,28,1,7.43,clear sky,0,0
221,Avarua,CK,2020-05-10 20:08:31,-21.21,-159.78,80.6,78,100,16.11,overcast clouds,0,0
222,Sinnamary,GF,2020-05-10 20:09:58,5.38,-52.95,78.15,91,98,13.44,moderate rain,0,0
223,Timbiqui,CO,2020-05-10 20:09:58,2.77,-77.67,81.45,88,100,8.23,moderate rain,0,0
224,Kenora,CA,2020-05-10 20:09:58,49.82,-94.43,42.8,22,75,14.99,broken clouds,0,0
225,Oliver,CA,2020-05-10 20:09:58,49.18,-119.55,66.2,37,20,12.75,few clouds,0,0
226,Lamar,US,2020-05-10 20:09:58,33.67,-95.58,75.99,49,75,5.82,broken clouds,0,0
227,Biak,ID,2020-05-10 20:09:58,-0.91,122.88,77.83,79,90,6.31,light rain,0,0
228,Port Blair,IN,2020-05-10 20:09:58,11.67,92.75,84.13,73,100,2.24,overcast clouds,0,0
229,Nador,MA,2020-05-10 20:09:58,35.17,-2.93,66.2,72,100,8.05,overcast clouds,0,0
230,Okhotsk,RU,2020-05-10 20:09:58,59.38,143.3,36.54,81,95,11.81,overcast clouds,0,0
231,Petropavlovsk-Kamchatskiy,RU,2020-05-10 20:09:59,53.05,158.65,37.4,55,0,11.18,clear sky,0,0
232,Puerto Escondido,MX,2020-05-10 20:09:59,15.85,-97.07,86.0,70,5,6.93,clear sky,0,0
233,Mao,ES,2020-05-10 20:09:59,39.89,4.27,62.6,88,20,17.22,few clouds,0,0
234,Kiama,AU,2020-05-10 20:09:59,-34.68,150.87,46.0,66,0,3.0,clear sky,0,0
235,Aksarka,RU,2020-05-10 20:09:59,66.56,67.8,32.52,97,100,8.08,overcast clouds,0,0
236,Maralal,KE,2020-05-10 20:09:59,1.1,36.7,60.21,97,100,6.85,light rain,0,0
237,Kahului,US,2020-05-10 20:09:59,20.89,-156.47,78.8,65,20,11.41,few clouds,0,0
238,Santa Rosa De Viterbo,BR,2020-05-10 20:09:59,-21.47,-47.36,80.6,32,0,4.7,clear sky,0,0
239,Zeya,RU,2020-05-10 20:09:59,53.75,127.27,32.22,87,0,5.41,clear sky,0,0
240,Khani,GE,2020-05-10 20:10:00,41.96,42.96,44.6,93,85,2.24,overcast clouds,0,0
241,Lotoshino,RU,2020-05-10 20:10:00,56.23,35.64,45.68,77,31,5.91,scattered clouds,0,0
242,Bouloupari,NC,2020-05-10 20:10:00,-21.87,166.05,62.6,93,24,4.7,few clouds,0,0
243,Kainantu,PG,2020-05-10 20:10:00,-6.29,145.87,61.45,97,57,1.07,broken clouds,0,0
244,Ancud,CL,2020-05-10 20:10:00,-41.87,-73.82,55.99,81,40,6.93,scattered clouds,0,0
245,Namibe,AO,2020-05-10 20:08:38,-15.2,12.15,79.21,60,0,2.21,clear sky,0,0
246,Belmonte,BR,2020-05-10 20:10:00,-15.86,-38.88,77.0,57,20,8.05,few clouds,0,0
247,Tayoltita,MX,2020-05-10 20:10:00,24.08,-105.93,94.17,10,0,9.22,clear sky,0,0
248,Bengkulu,ID,2020-05-10 20:05:39,-3.8,102.27,76.26,90,100,3.56,light rain,0,0
249,Vila Velha,BR,2020-05-10 20:10:01,-20.33,-40.29,77.0,53,20,9.17,few clouds,0,0
250,Abay,KZ,2020-05-10 20:10:01,49.63,72.85,57.2,76,0,8.95,clear sky,0,0
251,Muravlenko,RU,2020-05-10 20:10:01,63.79,74.52,59.74,49,100,12.66,overcast clouds,0,0
252,Tiznit,MA,2020-05-10 20:10:01,29.58,-9.5,59.04,79,43,12.39,scattered clouds,0,0
253,Kangaatsiaq,GL,2020-05-10 20:10:01,68.31,-53.46,32.9,91,100,16.42,overcast clouds,0,0
254,Hereford,GB,2020-05-10 20:05:24,52.06,-2.71,46.0,71,89,1.99,overcast clouds,0,0
255,Ternate,ID,2020-05-10 20:10:01,0.8,127.4,82.6,78,70,7.43,broken clouds,0,0
256,Mokrousovo,RU,2020-05-10 20:10:01,55.81,66.77,59.5,93,49,7.76,scattered clouds,0,0
257,Oktyabrskiy,RU,2020-05-10 20:10:02,54.48,53.47,54.48,68,100,3.38,overcast clouds,0,0
258,Vilhena,BR,2020-05-10 20:10:02,-12.74,-60.15,84.2,62,75,5.82,broken clouds,0,0
259,San Jose,US,2020-05-10 20:08:07,37.34,-121.89,75.99,46,75,4.72,broken clouds,0,0
260,Zhigansk,RU,2020-05-10 20:10:02,66.77,123.37,21.92,96,0,15.84,clear sky,0,0
261,Inta,RU,2020-05-10 20:10:02,66.03,60.17,35.15,96,38,1.77,scattered clouds,0,0
262,Pacifica,US,2020-05-10 20:10:02,37.61,-122.49,68.0,59,75,5.82,broken clouds,0,0
263,Mount Isa,AU,2020-05-10 20:08:43,-20.73,139.5,59.0,28,0,9.17,clear sky,0,0
264,Talaya,RU,2020-05-10 20:10:02,61.38,152.75,29.26,96,100,6.24,overcast clouds,0,0
265,Pacific Grove,US,2020-05-10 20:09:16,36.62,-121.92,64.0,63,40,11.41,scattered clouds,0,0
266,Lavrentiya,RU,2020-05-10 20:10:03,65.58,-171.0,36.09,90,94,6.17,overcast clouds,0,0
267,Shasta Lake,US,2020-05-10 20:07:29,40.68,-122.37,82.99,32,100,6.22,overcast clouds,0,0
268,Avera,US,2020-05-10 20:05:49,33.19,-82.53,73.4,35,40,6.93,scattered clouds,0,0
269,Taltal,CL,2020-05-10 20:10:03,-25.4,-70.48,65.73,64,28,6.02,scattered clouds,0,0
270,Asfi,MA,2020-05-10 20:10:03,32.3,-9.24,65.44,73,100,6.49,overcast clouds,0,0
271,Upernavik,GL,2020-05-10 20:08:40,72.79,-56.15,18.3,87,0,12.41,clear sky,0,0
272,Constitucion,CL,2020-05-10 20:05:58,-35.33,-72.42,61.09,65,8,8.63,clear sky,0,0
273,Praia Da Vitoria,PT,2020-05-10 20:05:39,38.73,-27.07,62.6,63,20,26.62,few clouds,0,0
274,Pucallpa,PE,2020-05-10 20:10:04,-8.38,-74.55,89.6,52,75,2.24,broken clouds,0,0
275,Maryville,US,2020-05-10 20:08:20,35.76,-83.97,70.0,29,1,13.87,clear sky,0,0
276,Northam,GB,2020-05-10 20:10:04,51.03,-4.22,51.01,72,91,18.99,overcast clouds,0,0
277,Boda,CF,2020-05-10 20:10:04,4.32,17.47,73.36,92,17,2.64,moderate rain,0,0
278,Matnog,PH,2020-05-10 20:10:04,12.59,124.09,80.94,82,100,7.72,overcast clouds,0,0
279,Sitka,US,2020-05-10 20:10:04,57.05,-135.33,71.6,26,40,8.05,scattered clouds,0,0
280,San Francisco,US,2020-05-10 20:06:56,37.77,-122.42,64.99,59,75,5.82,broken clouds,0,0
281,Nkhotakota,MW,2020-05-10 20:10:05,-12.93,34.3,71.19,73,29,6.42,scattered clouds,0,0
282,Lodja,CD,2020-05-10 20:10:05,-3.48,23.43,74.23,80,84,1.77,broken clouds,0,0
283,Fairbanks,US,2020-05-10 20:05:32,64.84,-147.72,75.99,24,1,9.17,clear sky,0,0
284,Juegang,CN,2020-05-10 20:10:05,32.32,121.19,64.0,90,0,3.18,clear sky,0,0
285,Havoysund,NO,2020-05-10 20:10:05,71.0,24.66,33.8,59,23,6.93,few clouds,0,0
286,Hojo,JP,2020-05-10 20:10:05,33.98,132.78,61.0,87,49,7.61,scattered clouds,0,0
287,Bukoba,TZ,2020-05-10 20:10:05,-1.33,31.81,68.29,79,72,6.44,broken clouds,0,0
288,Rognan,NO,2020-05-10 20:10:05,67.1,15.39,35.01,77,86,4.9,overcast clouds,0,0
289,Souillac,MU,2020-05-10 20:10:06,-20.52,57.52,73.4,64,40,10.29,scattered clouds,0,0
290,Port Shepstone,ZA,2020-05-10 20:10:06,-30.74,30.45,69.67,49,0,6.85,clear sky,0,0
291,Maracaibo,VE,2020-05-10 20:10:06,10.63,-71.64,91.18,54,27,10.51,scattered clouds,0,0
292,Camana,PE,2020-05-10 20:05:19,-16.62,-72.71,69.28,72,67,7.61,broken clouds,0,0
293,Esperance,AU,2020-05-10 20:10:06,-33.87,121.9,50.0,57,58,12.75,broken clouds,0,0
294,Winnemucca,US,2020-05-10 20:10:07,40.97,-117.74,80.6,9,1,6.93,clear sky,0,0
295,Ponta Delgada,PT,2020-05-10 20:10:07,37.73,-25.67,60.8,72,20,18.34,few clouds,0,0
296,Tilichiki,RU,2020-05-10 20:10:07,60.47,166.1,31.1,100,100,1.83,light snow,0,0
297,Lima,PE,2020-05-10 20:09:51,-12.04,-77.03,73.4,64,23,21.92,few clouds,0,0
298,Vagur,FO,2020-05-10 20:06:04,61.47,-6.81,37.71,74,86,17.56,overcast clouds,0,0
299,Wamba,NG,2020-05-10 20:10:07,8.93,8.6,77.18,72,0,2.08,clear sky,0,0
300,Aksu,CN,2020-05-10 20:10:07,41.12,80.26,61.66,49,86,10.6,overcast clouds,0,0
301,Aasiaat,GL,2020-05-10 20:10:07,68.71,-52.87,32.31,92,100,9.73,overcast clouds,0,0
302,Seydisehir,TR,2020-05-10 20:10:07,37.42,31.85,53.46,55,0,0.96,clear sky,0,0
303,Derac,HT,2020-05-10 20:10:07,19.65,-71.82,86.0,66,40,9.17,scattered clouds,0,0
304,Kahuta,PK,2020-05-10 20:10:08,33.59,73.39,73.4,78,91,5.82,overcast clouds,0,0
305,Buraydah,SA,2020-05-10 20:05:23,26.33,43.98,84.2,37,40,8.05,dust,0,0
306,Andra,RU,2020-05-10 20:10:08,62.51,65.89,59.81,53,92,3.58,overcast clouds,0,0
307,Nisia Floresta,BR,2020-05-10 20:10:08,-6.09,-35.21,84.2,74,40,10.29,scattered clouds,0,0
308,Altay,CN,2020-05-10 20:10:08,47.87,88.12,56.12,33,0,6.62,clear sky,0,0
309,Kavaratti,IN,2020-05-10 20:05:10,10.57,72.64,85.39,75,97,10.4,overcast clouds,0,0
310,Kalmunai,LK,2020-05-10 20:09:05,7.42,81.82,82.06,81,100,5.17,overcast clouds,0,0
311,Laguna,US,2020-05-10 20:09:18,38.42,-121.42,73.99,52,1,14.99,clear sky,0,0
312,Lorengau,PG,2020-05-10 20:10:08,-2.02,147.27,82.98,82,30,9.73,scattered clouds,0,0
313,Quirinopolis,BR,2020-05-10 20:10:08,-18.45,-50.45,77.27,63,0,2.66,clear sky,0,0
314,Salinopolis,BR,2020-05-10 20:10:09,-0.61,-47.36,82.53,78,4,10.67,clear sky,0,0
315,Baykit,RU,2020-05-10 20:10:09,61.67,96.37,40.32,67,61,2.48,broken clouds,0,0
316,Khasan,RU,2020-05-10 20:10:09,42.43,130.64,50.22,69,0,8.5,clear sky,0,0
317,Naryan-Mar,RU,2020-05-10 20:10:09,67.67,53.09,33.64,94,100,6.76,overcast clouds,0,0
318,Sobolevo,RU,2020-05-10 20:08:37,54.43,31.9,48.25,79,0,4.25,clear sky,0,0
319,Butte,US,2020-05-10 20:09:43,39.65,-121.57,81.0,39,1,11.41,clear sky,0,0
320,Palauig,PH,2020-05-10 20:10:09,15.44,119.9,81.81,76,1,6.53,clear sky,0,0
321,Kyren,RU,2020-05-10 20:10:09,51.68,102.14,51.55,51,65,5.46,broken clouds,0,0
322,Kaitangata,NZ,2020-05-10 20:10:10,-46.28,169.85,48.99,79,49,1.01,scattered clouds,0,0
323,Sarh,TD,2020-05-10 20:10:10,9.14,18.39,89.33,39,0,6.22,clear sky,0,0
324,Ciudad Bolivar,VE,2020-05-10 20:10:10,8.12,-63.55,96.73,35,31,14.18,scattered clouds,0,0
325,Lira,UG,2020-05-10 20:10:10,2.23,32.91,68.16,92,100,1.36,light rain,0,0
326,Baijiantan,CN,2020-05-10 20:07:05,45.63,85.18,69.28,19,88,11.65,overcast clouds,0,0
327,Airai,TL,2020-05-10 20:08:41,-8.93,125.41,56.44,98,12,2.89,few clouds,0,0
328,Pandamatenga,BW,2020-05-10 20:10:10,-18.53,25.63,61.2,42,3,3.09,clear sky,0,0
329,Santo Angelo,BR,2020-05-10 20:10:10,-28.3,-54.26,82.4,39,93,14.99,overcast clouds,0,0
330,Hofn,IS,2020-05-10 20:10:10,64.25,-15.21,40.23,62,100,2.48,overcast clouds,0,0
331,Santa Rosa,PH,2020-05-10 20:08:49,14.31,121.11,84.2,83,40,6.33,scattered clouds,0,0
332,Dongsheng,CN,2020-05-10 20:10:11,39.82,109.98,42.13,55,0,15.12,clear sky,0,0
333,Imbituba,BR,2020-05-10 20:09:19,-28.24,-48.67,75.2,53,0,16.11,clear sky,0,0
334,Lushoto,TZ,2020-05-10 20:10:11,-4.78,38.28,55.56,96,18,4.18,few clouds,0,0
335,Felanitx,ES,2020-05-10 20:10:11,39.47,3.15,66.2,82,20,14.99,few clouds,0,0
336,Hays,US,2020-05-10 20:10:11,30.05,-98.03,80.01,38,1,3.0,clear sky,0,0
337,Beira,MZ,2020-05-10 20:10:11,-19.84,34.84,75.2,64,40,9.17,scattered clouds,0,0
338,Broome,US,2020-05-10 20:08:53,42.25,-75.83,59.0,32,1,13.87,clear sky,0,0
339,Hastings,GB,2020-05-10 20:10:11,50.86,0.57,46.99,70,98,10.0,overcast clouds,0,0
340,Fort Nelson,CA,2020-05-10 20:06:26,58.81,-122.7,50.0,34,75,12.75,broken clouds,0,0
341,Sao Filipe,CV,2020-05-10 20:10:12,14.9,-24.5,73.6,76,7,11.32,clear sky,0,0
342,La Palma,US,2020-05-10 20:10:12,33.85,-118.05,78.01,57,40,5.82,scattered clouds,0,0
343,Santa Barbara,US,2020-05-10 20:08:24,34.42,-119.7,73.0,82,90,5.82,overcast clouds,0,0
344,Sao Felix Do Xingu,BR,2020-05-10 20:08:55,-6.64,-51.99,80.82,90,97,2.55,light rain,0,0
345,Komsomolskiy,UZ,2020-05-10 20:08:32,40.43,71.72,68.0,52,0,9.17,clear sky,0,0
346,Beringovskiy,RU,2020-05-10 20:05:31,63.05,179.32,33.33,95,64,12.66,broken clouds,0,0
347,Pestravka,RU,2020-05-10 20:10:12,52.41,49.96,53.91,74,100,10.0,overcast clouds,0,0
348,Tabuk,PH,2020-05-10 20:10:12,17.42,121.44,75.43,85,0,1.25,clear sky,0,0
349,Tura,IN,2020-05-10 20:05:58,25.52,90.22,77.49,53,56,2.42,broken clouds,0,0
350,Amboasary,MG,2020-05-10 20:10:12,-25.03,46.38,71.6,68,40,11.41,scattered clouds,0,0
351,Pangai,TO,2020-05-10 20:10:13,-19.8,-174.35,77.0,100,40,4.7,scattered clouds,0,0
352,Pinawa,CA,2020-05-10 20:10:13,50.15,-95.88,45.39,44,97,11.41,overcast clouds,0,0
353,Zverinogolovskoye,RU,2020-05-10 20:10:13,54.46,64.85,60.04,75,31,2.46,scattered clouds,0,0
354,Coahuayana,MX,2020-05-10 20:10:13,18.73,-103.68,93.2,32,20,6.93,few clouds,0,0
355,Vardo,NO,2020-05-10 20:10:13,70.37,31.11,37.4,55,75,16.11,broken clouds,0,0
356,Marolambo,MG,2020-05-10 20:10:13,-20.05,48.12,63.64,94,96,2.59,overcast clouds,0,0
357,Yangjiang,CN,2020-05-10 20:10:13,21.85,111.97,78.53,94,80,1.28,broken clouds,0,0
358,Djougou,BJ,2020-05-10 20:07:04,9.71,1.67,75.67,87,96,6.76,moderate rain,0,0
359,Rehoboth,NA,2020-05-10 20:10:13,-23.32,17.08,62.73,30,15,8.57,few clouds,0,0
360,Chute-Aux-Outardes,CA,2020-05-10 20:08:56,49.12,-68.4,42.8,41,90,13.87,overcast clouds,0,0
361,Tucurui,BR,2020-05-10 20:10:14,-3.77,-49.67,83.37,87,65,2.21,moderate rain,0,0
362,Severo-Kurilsk,RU,2020-05-10 20:10:14,50.68,156.12,33.57,90,25,7.2,scattered clouds,0,0
363,Mushie,CD,2020-05-10 20:10:14,-3.02,16.9,71.01,94,100,1.86,overcast clouds,0,0
364,Batagay,RU,2020-05-10 20:10:14,67.63,134.63,28.81,97,98,5.26,overcast clouds,0,0
365,Puerto Baquerizo Moreno,EC,2020-05-10 20:10:14,-0.9,-89.6,84.2,70,20,14.99,few clouds,0,0
366,Xuddur,SO,2020-05-10 20:10:14,4.12,43.89,77.5,78,100,9.42,overcast clouds,0,0
367,Mayumba,GA,2020-05-10 20:10:14,-3.43,10.66,77.09,86,100,3.51,overcast clouds,0,0
368,Phetchabun,TH,2020-05-10 20:10:14,16.25,101.08,84.4,70,36,1.32,scattered clouds,0,0
369,Batsfjord,NO,2020-05-10 20:10:14,70.63,29.72,30.2,63,20,2.24,few clouds,0,0
370,Kapit,MY,2020-05-10 20:10:14,2.02,112.93,75.56,94,99,1.19,light rain,0,0
371,Mosquera,CO,2020-05-10 20:07:50,4.71,-74.23,69.8,46,75,10.29,broken clouds,0,0
372,Martapura,ID,2020-05-10 20:10:15,-3.42,114.85,80.6,94,90,2.24,overcast clouds,0,0
373,Muisne,EC,2020-05-10 20:10:15,0.6,-80.03,84.2,89,75,8.05,broken clouds,0,0
374,Lata,PT,2020-05-10 20:10:15,40.16,-8.33,61.0,85,100,8.99,overcast clouds,0,0
375,Vladicin Han,RS,2020-05-10 20:10:15,42.71,22.06,63.0,54,100,1.99,overcast clouds,0,0
376,Kostomuksha,RU,2020-05-10 20:10:15,64.57,30.58,40.77,76,100,9.28,overcast clouds,0,0
377,Kudahuvadhoo,MV,2020-05-10 20:10:15,2.67,72.89,85.46,77,100,15.32,moderate rain,0,0
378,Sao Joao Da Barra,BR,2020-05-10 20:10:15,-21.64,-41.05,77.0,47,0,16.11,clear sky,0,0
379,Salalah,OM,2020-05-10 20:10:16,17.02,54.09,84.2,83,40,3.36,scattered clouds,0,0
380,Port Lincoln,AU,2020-05-10 20:10:16,-34.73,135.87,53.73,69,0,8.14,clear sky,0,0
381,Whitehorse,CA,2020-05-10 20:08:51,60.72,-135.05,63.0,26,20,16.11,few clouds,0,0
382,Burnie,AU,2020-05-10 20:10:16,-41.07,145.92,48.99,81,45,1.99,scattered clouds,0,0
383,Shelbyville,US,2020-05-10 20:10:16,35.48,-86.46,70.0,37,20,9.17,few clouds,0,0
384,Hervey Bay,AU,2020-05-10 20:05:51,-25.3,152.85,60.01,58,50,4.0,scattered clouds,0,0
385,Sakaiminato,JP,2020-05-10 20:10:16,35.55,133.23,62.6,82,40,19.46,scattered clouds,0,0
386,Nemuro,JP,2020-05-10 20:10:17,43.32,145.57,47.41,95,52,18.66,broken clouds,0,0
387,Chhoti Sadri,IN,2020-05-10 20:10:17,24.38,74.7,82.99,25,0,5.28,clear sky,0,0
388,Guerrero Negro,MX,2020-05-10 20:10:17,27.98,-114.06,73.71,51,59,13.2,broken clouds,0,0
389,Honningsvag,NO,2020-05-10 20:10:17,70.98,25.97,35.49,75,30,7.11,scattered clouds,0,0
390,Mocuba,MZ,2020-05-10 20:10:17,-16.84,36.99,67.53,92,97,3.83,overcast clouds,0,0
391,Lakkion,GR,2020-05-10 20:10:17,37.13,26.85,64.4,82,90,4.7,overcast clouds,0,0
392,Makakilo City,US,2020-05-10 20:09:24,21.35,-158.09,80.6,64,40,8.05,scattered clouds,0,0
393,Novyy Svit,UA,2020-05-10 20:07:24,47.81,38.02,53.8,83,100,8.12,light rain,0,0
394,Guican,CO,2020-05-10 20:10:17,6.46,-72.41,61.97,66,79,2.39,broken clouds,0,0
395,Bahia Blanca,AR,2020-05-10 20:10:18,-38.72,-62.27,67.01,30,0,14.83,clear sky,0,0
396,Mehamn,NO,2020-05-10 20:09:10,71.04,27.85,30.24,87,77,7.34,broken clouds,0,0
397,Barinitas,VE,2020-05-10 20:10:18,8.76,-70.41,85.01,55,92,2.8,overcast clouds,0,0
398,Ballina,AU,2020-05-10 20:10:18,-28.87,153.57,57.2,62,90,10.29,overcast clouds,0,0
399,Cherskiy,RU,2020-05-10 20:10:18,68.75,161.3,36.81,79,14,19.73,few clouds,0,0
400,Vila Franca Do Campo,PT,2020-05-10 20:10:18,37.72,-25.43,60.8,72,20,18.34,few clouds,0,0
401,Clyde River,CA,2020-05-10 20:05:30,70.47,-68.59,15.8,61,75,3.36,broken clouds,0,0
402,Encarnacion,PY,2020-05-10 20:10:18,-27.33,-55.9,84.2,35,58,11.41,broken clouds,0,0
403,Burns Lake,CA,2020-05-10 20:10:19,54.23,-125.75,54.16,38,0,10.16,clear sky,0,0
404,Gazojak,TM,2020-05-10 20:10:19,41.19,61.4,80.87,22,92,9.86,overcast clouds,0,0
405,Chapais,CA,2020-05-10 20:10:19,49.78,-74.85,32.0,96,90,19.46,light snow,0,0
406,Mwanza,TZ,2020-05-10 20:10:19,-2.52,32.9,71.6,83,20,8.05,few clouds,0,0
407,Bambous Virieux,MU,2020-05-10 20:10:19,-20.34,57.76,73.4,64,40,10.29,scattered clouds,0,0
408,Saint-Georges,GD,2020-05-10 20:10:19,12.06,-61.75,86.0,70,20,17.22,few clouds,0,0
409,Awjilah,LY,2020-05-10 20:10:19,29.11,21.29,77.27,15,14,11.01,few clouds,0,0
410,Praya,CV,2020-05-10 20:10:19,14.92,-23.51,77.0,65,20,21.92,few clouds,0,0
411,Srednekolymsk,RU,2020-05-10 20:10:19,67.45,153.68,32.16,96,74,12.57,broken clouds,0,0
412,Panguna,PG,2020-05-10 20:10:19,-6.32,155.48,69.67,95,26,1.88,scattered clouds,0,0
413,Martinsville,US,2020-05-10 20:09:32,36.69,-79.87,66.99,34,1,6.93,clear sky,0,0
414,Angicos,BR,2020-05-10 20:08:11,-5.67,-36.6,84.49,61,40,9.82,scattered clouds,0,0
415,La Asuncion,VE,2020-05-10 20:10:20,11.03,-63.86,89.6,52,9,20.8,clear sky,0,0
416,Kawalu,ID,2020-05-10 20:10:20,-7.38,108.21,73.76,90,100,1.23,light rain,0,0
417,Pisco,PE,2020-05-10 20:06:03,-13.7,-76.22,71.6,73,7,8.05,clear sky,0,0
418,Valle Hermoso,MX,2020-05-10 20:09:02,25.67,-97.83,87.8,62,75,16.11,broken clouds,0,0
419,Mizdah,LY,2020-05-10 20:10:20,31.45,12.98,88.79,12,15,9.69,few clouds,0,0
420,Weyburn,CA,2020-05-10 20:07:12,49.67,-103.85,46.99,26,96,8.99,overcast clouds,0,0
421,Saint Anthony,US,2020-05-10 20:10:20,45.02,-93.22,48.2,45,90,11.41,overcast clouds,0,0
422,Guaratuba,BR,2020-05-10 20:10:20,-25.88,-48.57,77.0,61,20,6.93,few clouds,0,0
423,Kendari,ID,2020-05-10 20:09:06,-3.94,122.5,75.34,90,93,3.42,overcast clouds,0,0
424,Mahon,ES,2020-05-10 20:10:21,39.89,4.27,62.6,88,20,17.22,few clouds,0,0
425,Timizart,DZ,2020-05-10 20:10:21,36.8,4.27,58.21,82,61,4.09,broken clouds,0,0
426,Luganville,VU,2020-05-10 20:10:21,-15.53,167.17,77.0,88,75,4.7,broken clouds,0,0
427,Ginir,ET,2020-05-10 20:10:21,7.13,40.7,59.13,96,30,3.58,light rain,0,0
428,Muroto,JP,2020-05-10 20:10:21,33.28,134.15,66.54,91,92,6.44,overcast clouds,0,0
429,Forio,IT,2020-05-10 20:10:21,40.73,13.86,70.0,41,62,3.0,broken clouds,0,0
430,Spring Valley,US,2020-05-10 20:10:21,36.11,-115.25,96.01,11,75,10.29,broken clouds,0,0
431,Kieta,PG,2020-05-10 20:06:22,-6.22,155.63,80.01,77,67,2.59,broken clouds,0,0
432,Turmalina,BR,2020-05-10 20:10:22,-17.29,-42.73,67.08,72,17,4.76,few clouds,0,0
433,Conde,BR,2020-05-10 20:10:17,-7.26,-34.91,84.2,70,20,10.29,few clouds,0,0
434,Iranshahr,IR,2020-05-10 20:10:22,27.2,60.68,87.8,16,13,3.96,few clouds,0,0
435,Nizhniy Tsasuchey,RU,2020-05-10 20:10:22,50.52,115.13,46.18,56,93,20.87,overcast clouds,0,0
436,Along,IN,2020-05-10 20:10:22,28.17,94.77,65.23,81,0,2.51,clear sky,0,0
437,Torbay,CA,2020-05-10 20:10:22,47.67,-52.73,41.0,93,75,27.51,broken clouds,0,0
438,Gauribidanur,IN,2020-05-10 20:10:22,13.61,77.52,78.8,54,20,5.82,few clouds,0,0
439,Ambositra,MG,2020-05-10 20:10:22,-20.52,47.25,56.8,92,99,5.26,overcast clouds,0,0
440,Ortigueira,BR,2020-05-10 20:10:23,-24.21,-50.95,70.05,66,0,3.65,clear sky,0,0
441,Chumikan,RU,2020-05-10 20:10:23,54.72,135.31,33.46,93,100,20.04,overcast clouds,0,0
442,Half Moon Bay,US,2020-05-10 20:10:23,37.46,-122.43,71.01,48,40,10.29,scattered clouds,0,0
443,Ilheus,BR,2020-05-10 20:10:23,-14.79,-39.05,75.36,70,45,12.55,scattered clouds,0,0
444,Westerkappeln,DE,2020-05-10 20:10:23,52.32,7.88,48.2,81,40,16.11,light rain,0,0
445,Bonthe,SL,2020-05-10 20:10:23,7.53,-12.51,81.09,81,68,8.84,broken clouds,0,0
446,Celestun,MX,2020-05-10 20:10:23,20.87,-90.4,83.19,72,2,12.62,clear sky,0,0
447,Tazovskiy,RU,2020-05-10 20:10:23,67.47,78.7,32.29,98,100,12.71,overcast clouds,0,0
448,Lamu,KE,2020-05-10 20:10:24,-2.27,40.9,77.92,91,100,18.32,moderate rain,0,0
449,Banatski Karlovac,RS,2020-05-10 20:10:24,45.05,21.02,71.6,49,100,9.17,light rain,0,0
450,Egvekinot,RU,2020-05-10 20:10:24,66.32,-179.17,31.21,100,100,6.4,light snow,0,0
451,Kurchum,KZ,2020-05-10 20:10:24,48.57,83.65,61.63,30,100,8.72,overcast clouds,0,0
452,Hounde,BF,2020-05-10 20:10:24,11.5,-3.52,91.99,35,92,4.52,overcast clouds,0,0
453,Dunedin,NZ,2020-05-10 20:10:24,-45.87,170.5,46.99,97,57,3.0,broken clouds,0,0
454,Labrea,BR,2020-05-10 20:10:24,-7.26,-64.8,86.38,71,97,0.58,light rain,0,0
455,Cururupu,BR,2020-05-10 20:10:24,-1.83,-44.87,82.81,73,26,5.12,scattered clouds,0,0
456,Nioro,GM,2020-05-10 20:10:24,13.35,-15.75,80.49,53,16,12.62,few clouds,0,0
457,Ilhabela,BR,2020-05-10 20:10:25,-23.78,-45.36,71.22,69,0,6.02,clear sky,0,0
458,Port-Gentil,GA,2020-05-10 20:10:25,-0.72,8.78,77.0,94,20,6.93,few clouds,0,0
459,San-Pedro,CI,2020-05-10 20:10:25,4.75,-6.64,79.63,89,100,10.02,moderate rain,0,0
460,Bongandanga,CD,2020-05-10 20:10:25,1.5,21.05,73.72,91,100,2.04,overcast clouds,0,0
461,Nizwa,OM,2020-05-10 20:10:25,22.93,57.53,83.68,19,0,1.79,clear sky,0,0
462,Tikamgarh,IN,2020-05-10 20:10:25,24.75,78.83,89.51,22,66,8.7,broken clouds,0,0
463,Vanimo,PG,2020-05-10 20:10:25,-2.67,141.3,78.98,86,63,4.88,light rain,0,0
464,Botro,CI,2020-05-10 20:10:25,7.85,-5.31,82.4,78,20,2.24,few clouds,0,0
465,Sfantu Gheorghe,RO,2020-05-10 20:10:25,45.87,25.78,60.01,74,89,2.89,overcast clouds,0,0
466,Raga,SS,2020-05-10 20:10:26,8.46,25.68,76.62,73,100,7.52,light rain,0,0
467,Mariinskiy Posad,RU,2020-05-10 20:10:26,56.12,47.72,50.0,81,20,4.47,few clouds,0,0
468,Agadir,MA,2020-05-10 20:10:26,30.42,-9.6,69.8,56,0,12.75,clear sky,0,0
469,Solwezi,ZM,2020-05-10 20:10:26,-12.17,26.39,57.27,84,98,4.94,overcast clouds,0,0
470,Pinega,RU,2020-05-10 20:10:26,64.7,43.39,36.43,93,22,4.68,few clouds,0,0
471,Sept-Iles,CA,2020-05-10 20:08:43,50.2,-66.38,46.4,39,75,19.46,broken clouds,0,0
472,Casas Grandes,MX,2020-05-10 20:10:26,30.37,-107.95,84.72,14,61,4.29,broken clouds,0,0
473,Killarney,IE,2020-05-10 20:10:26,52.05,-9.52,48.81,77,99,11.59,overcast clouds,0,0
474,Chegdomyn,RU,2020-05-10 20:10:26,51.12,133.02,38.79,90,100,4.52,light rain,0,0
475,Concordia,AR,2020-05-10 20:10:12,-31.39,-58.02,82.4,51,0,9.17,clear sky,0,0
476,Cartagena,CO,2020-05-10 20:10:01,10.4,-75.51,91.4,66,20,10.29,few clouds,0,0
477,Hambantota,LK,2020-05-10 20:06:03,6.12,81.12,81.9,82,100,7.63,light rain,0,0
478,Waingapu,ID,2020-05-10 20:10:27,-9.66,120.26,75.74,82,36,9.53,scattered clouds,0,0
479,Cienega,CO,2020-05-10 20:10:27,5.41,-73.3,64.53,77,93,4.29,light rain,0,0
480,Katsuura,JP,2020-05-10 20:10:27,35.13,140.3,69.01,92,91,21.03,overcast clouds,0,0
481,Bela,IN,2020-05-10 20:10:27,25.93,81.98,89.42,24,23,8.52,few clouds,0,0
482,Yellapur,IN,2020-05-10 20:10:27,14.97,74.72,76.26,82,23,1.9,few clouds,0,0
483,Bucerias,MX,2020-05-10 20:10:27,20.75,-105.33,84.2,51,20,9.17,few clouds,0,0
484,Marquette,US,2020-05-10 20:10:28,46.53,-87.63,35.01,62,100,10.0,overcast clouds,0,0
485,Samarai,PG,2020-05-10 20:10:28,-10.62,150.67,79.54,82,6,12.93,clear sky,0,0
486,Khandyga,RU,2020-05-10 20:10:28,62.67,135.6,32.29,98,99,0.78,overcast clouds,0,0
487,San Vicente,AR,2020-05-10 20:10:28,-26.62,-54.13,76.64,47,0,4.54,clear sky,0,0
488,Barpeta,IN,2020-05-10 20:10:12,26.32,91.0,80.91,46,5,1.59,clear sky,0,0
489,Kananga,CD,2020-05-10 20:10:28,-5.9,22.42,72.18,83,90,3.83,overcast clouds,0,0
490,Rio Grande,BR,2020-05-10 20:06:15,-32.03,-52.1,82.4,32,60,11.41,broken clouds,0,0
491,Alta Floresta,BR,2020-05-10 20:10:29,-9.88,-56.09,91.4,52,20,6.93,few clouds,0,0
492,Manavalakurichi,IN,2020-05-10 20:10:29,8.13,77.3,82.4,88,75,4.7,mist,0,0
493,Kruisfontein,ZA,2020-05-10 20:10:29,-34.0,24.73,63.28,37,0,3.53,clear sky,0,0
494,Ialibu,PG,2020-05-10 20:10:29,-6.28,143.99,60.8,100,75,3.36,broken clouds,0,0
495,Gaeta,IT,2020-05-10 20:10:29,41.22,13.56,64.99,45,60,4.27,broken clouds,0,0
496,Visani,RO,2020-05-10 20:10:29,45.15,27.28,62.6,55,40,8.05,scattered clouds,0,0
497,Custoias,PT,2020-05-10 20:10:29,41.11,-7.32,59.0,8,40,1.99,scattered clouds,0,0
498,Hamilton,US,2020-05-10 20:10:30,39.18,-84.53,59.0,58,90,23.04,light rain,0,0
499,Soyo,AO,2020-05-10 20:10:30,-6.13,12.37,79.75,85,100,2.13,light rain,0,0
500,Benton Harbor,US,2020-05-10 20:07:15,42.12,-86.45,44.6,87,90,5.82,light rain,0,0
501,Plouzane,FR,2020-05-10 20:10:30,48.38,-4.62,57.2,93,90,24.16,overcast clouds,0,0
502,Olinda,BR,2020-05-10 20:10:30,-8.01,-34.86,84.2,70,40,11.41,shower rain,0,0
503,Yelatma,RU,2020-05-10 20:10:30,54.97,41.75,47.28,91,100,4.18,overcast clouds,0,0
504,Talnakh,RU,2020-05-10 20:08:37,69.49,88.4,30.2,92,75,6.71,broken clouds,0,0
505,Bonavista,CA,2020-05-10 20:10:30,48.65,-53.11,34.25,91,83,26.4,broken clouds,0,0
506,Wanaka,NZ,2020-05-10 20:10:30,-44.7,169.15,47.41,77,100,4.52,overcast clouds,0,0
507,Narasapur,IN,2020-05-10 20:10:30,16.45,81.67,82.49,79,8,6.8,clear sky,0,0
508,Batetskiy,RU,2020-05-10 20:10:31,58.65,30.3,45.03,58,50,4.41,scattered clouds,0,0
509,Campbell River,CA,2020-05-10 20:10:31,50.02,-125.24,75.2,31,40,6.93,scattered clouds,0,0
510,Salym,RU,2020-05-10 20:10:31,60.06,71.48,61.2,59,93,4.88,overcast clouds,0,0
511,Severo-Yeniseyskiy,RU,2020-05-10 20:10:31,60.37,93.04,46.13,58,83,4.79,broken clouds,0,0
512,Mandali,IQ,2020-05-10 20:10:31,33.75,45.55,75.88,23,0,6.55,clear sky,0,0
513,Deputatskiy,RU,2020-05-10 20:10:31,69.3,139.9,23.94,96,100,5.44,overcast clouds,0,0
514,Kankakee,US,2020-05-10 20:10:31,41.15,-87.87,45.0,87,90,19.46,overcast clouds,0,0
515,Mudgee,AU,2020-05-10 20:10:31,-32.59,149.59,32.0,83,0,4.36,clear sky,0,0
516,Sidi Ali,DZ,2020-05-10 20:10:32,36.1,0.42,62.37,73,91,19.46,overcast clouds,0,0
517,Amuntai,ID,2020-05-10 20:10:32,-2.42,115.25,75.96,90,86,0.45,overcast clouds,0,0
518,Oda,JP,2020-05-10 20:10:32,35.18,132.5,58.59,90,54,10.67,broken clouds,0,0
519,Koslan,RU,2020-05-10 20:10:32,63.46,48.9,46.04,75,92,7.27,overcast clouds,0,0
520,Kazachinskoye,RU,2020-05-10 20:10:32,57.7,93.28,53.87,65,100,2.95,overcast clouds,0,0
521,Orlik,RU,2020-05-10 20:10:32,52.52,99.83,41.81,65,77,1.92,broken clouds,0,0
522,Pombas,CV,2020-05-10 20:10:32,17.15,-25.02,75.2,64,75,26.4,broken clouds,0,0
523,Markova,UA,2020-05-10 20:10:32,48.68,24.41,54.01,79,100,5.79,overcast clouds,0,0
524,Kayerkan,RU,2020-05-10 20:10:33,69.35,87.76,30.2,92,75,6.71,broken clouds,0,0
525,Varia,FR,2020-05-10 20:10:33,44.57,-0.11,59.0,100,100,3.0,light rain,0,0
526,Port Hardy,CA,2020-05-10 20:08:54,50.7,-127.42,66.2,48,40,3.36,scattered clouds,0,0
527,Flin Flon,CA,2020-05-10 20:10:33,54.77,-101.86,35.6,24,20,8.05,few clouds,0,0
528,Porto Walter,BR,2020-05-10 20:10:33,-8.27,-72.74,88.23,53,90,2.08,overcast clouds,0,0
529,Ouesso,CG,2020-05-10 20:08:31,1.61,16.05,73.2,95,49,4.61,moderate rain,0,0
530,Guamuchil,MX,2020-05-10 20:10:33,25.47,-108.1,93.0,45,0,5.01,clear sky,0,0
531,Les Cayes,HT,2020-05-10 20:10:34,18.2,-73.75,83.82,67,61,12.82,broken clouds,0,0
532,Boguchany,RU,2020-05-10 20:10:34,58.38,97.45,44.82,58,49,1.95,scattered clouds,0,0
533,Arona,ES,2020-05-10 20:10:34,28.1,-16.68,71.6,64,20,4.7,few clouds,0,0
534,Sabang,ID,2020-05-10 20:10:34,5.89,95.32,82.08,78,100,3.89,moderate rain,0,0
535,Maldonado,UY,2020-05-10 20:10:34,-34.67,-54.92,78.8,44,0,13.87,clear sky,0,0
536,Berdigestyakh,RU,2020-05-10 20:10:34,62.1,126.7,27.09,95,100,5.88,overcast clouds,0,0
537,Kiunga,PG,2020-05-10 20:10:34,-6.12,141.29,75.22,98,100,2.39,overcast clouds,0,0
538,Santiago,CL,2020-05-10 20:07:03,-33.46,-70.65,66.2,48,0,4.7,clear sky,0,0
539,Vallenar,CL,2020-05-10 20:10:34,-28.57,-70.76,79.65,29,0,6.78,clear sky,0,0
540,Korla,CN,2020-05-10 20:10:34,41.76,86.15,64.76,24,94,12.84,overcast clouds,0,0
541,Novaya Mayna,RU,2020-05-10 20:10:35,54.15,49.75,51.8,76,100,6.71,overcast clouds,0,0
542,Dwarka,IN,2020-05-10 20:10:35,22.24,68.97,81.41,86,0,12.08,clear sky,0,0
543,Rawlins,US,2020-05-10 20:10:35,41.79,-107.24,55.99,32,1,9.17,clear sky,0,0
544,Altus,US,2020-05-10 20:10:35,34.64,-99.33,73.4,43,90,17.22,overcast clouds,0,0
545,Hobyo,SO,2020-05-10 20:10:35,5.35,48.53,84.72,75,74,11.74,broken clouds,0,0
546,Mount Abu,IN,2020-05-10 20:10:35,24.59,72.71,72.28,42,0,6.15,clear sky,0,0
547,Paciran,ID,2020-05-10 20:10:35,-6.88,112.38,79.32,88,48,8.05,light rain,0,0
548,Tarauaca,BR,2020-05-10 20:09:30,-8.16,-70.77,91.26,45,47,1.83,scattered clouds,0,0
549,Puerto Madryn,AR,2020-05-10 20:10:36,-42.77,-65.04,62.04,34,43,30.74,scattered clouds,0,0
550,Jalu,LY,2020-05-10 20:10:36,29.03,21.55,77.47,15,0,10.8,clear sky,0,0
551,Kodinsk,RU,2020-05-10 20:10:36,58.69,99.18,41.99,63,73,1.52,broken clouds,0,0
552,Calvinia,ZA,2020-05-10 20:10:36,-31.47,19.78,66.4,27,0,5.61,clear sky,0,0
553,Vangaindrano,MG,2020-05-10 20:10:36,-23.35,47.6,67.06,83,45,3.98,scattered clouds,0,0
